station_id,name,latitude,longitude,elevation,date_range
AGM00060355,SKIKDA,36.883,6.9,3.0,1974 to 1976
AGM00060360,ANNABA,36.833,7.817,4.0,1973 to 2008
AGM00060390,DAR-EL-BEIDA,36.6833,3.2167,25.0,1948 to 2025
AGM00060402,BEJAIA-AEROPORT,36.717,5.067,6.0,1973 to 1988
AGM00060419,CONSTANTINE,36.283,6.617,694.0,1973 to 2008
AGM00060425,CHLEF,36.217,1.333,141.0,1973 to 1977
AGM00060430,MILIANA,36.3,2.233,715.0,1973 to 1990
AGM00060445,SETIF,36.183,5.25,1040.0,1983 to 1989
AGM00060475,TEBESSA,35.417,8.117,811.0,1974 to 1991
AGM00060490,ORAN-SENIA,35.633,-0.6,90.0,1973 to 2008
AGM00060511,TIARET,35.35,1.467,989.0,1987 to 1988
AGXUAE04843,ALGER,36.77,3.05,50.0,1930 to 1938
AUM00011010,LINZ/HOERSCHING-FLUGHAFEN,48.2353,14.1881,298.0,1987 to 2025
AUM00011035,WIEN/HOHE WARTE,48.2486,16.3564,200.0,1910 to 2025
AUM00011120,INNSBRUCK-FLUGHAFEN,47.2603,11.3439,581.0,1998 to 2025
AUM00011240,GRAZ-THALERHOF-FLUGHAFEN,46.9931,15.4392,340.0,1987 to 2025
BEM00006400,KOKSIJDE,51.083,2.65,9.0,1999 to 2002
BEM00006447,UCCLE,50.7969,4.3581,99.0,1949 to 2016
BEM00006458,BEAUVECHAIN,50.7456,4.7633,112.8,2005 to 2025
BEM00006476,ST-HUBERT,50.033,5.4,558.0,1964 to 2006
BEM00006496,ELSENBORN,50.4822,6.1814,565.1,1999 to 2021
BOM00026850,MINSK,53.9286,27.6353,223.8,1939 to 2025
BOM00033008,BREST,52.1167,23.6858,145.9,1951 to 2022
BOM00033036,MOZYR (AMOS),52.05,29.25,185.0,1957 to 1969
BOM00033041,GOMEL,52.4019,30.9631,126.3,1970 to 2022
BUM00015614,SOFIA (OBSERV.),42.65,23.3833,595.0,1955 to 2025
BUM00015730,KURDJALI,41.65,25.367,331.0,1966 to 1991
CYM00017607,ATHALASSA,35.1408,33.3964,162.0,1949 to 2025
CYM00017611,USAF-DS3-163,35.083,33.9,37.0,1973 to 1977
DAM00006030,FLYVESTATION AALBOR,57.1,9.867,3.0,1967 to 1992
DAM00006060,FLYVESTATION KARUP,56.2933,9.1139,52.1,1999 to 2024
DAM00006180,KOBENHAVN/KASTRUP,55.6333,12.6667,5.0,1949 to 1962
DAM00006181,JAEGERSBORG,55.767,12.533,40.0,1962 to 2006
ENM00026038,TALLINN-HARKU,59.3981,24.6028,32.9,1947 to 2025
EZM00011518,PRAHA/RUZYNE,50.1,14.2833,374.0,1949 to 1967
EZM00011520,PRAHA-LIBUS,50.0078,14.4469,302.0,1969 to 2025
EZM00011722,USAF-DS3-134,49.08,16.62,195.0,1996 to 2003
EZM00011747,PROSTEJOV,49.4525,17.1347,214.8,2003 to 2025
FIM00002836,SODANKYLA ARCTIC RESEARCH CENT,67.3667,26.6289,179.0,1920 to 2025
FIM00002935,JYVASKYLA AIRPORT,62.3975,25.6708,139.0,1957 to 2016
FIM00002963,JOKIOINEN OBSERVATORY,60.8139,23.4975,104.0,1957 to 2025
FIM00002974,HELSINKI/SEUTALA,60.3167,24.9667,58.0,1949 to 1956
FIXUAC00035,HELSINKI,60.2,24.92,47.0,1919 to 1942
FIXUAE05506,KAJAANI,64.22,27.73,140.0,1920 to 1921
FIXUAE05507,KAUHAVA,63.12,23.08,38.0,1934 to 1935
FIXUAE05513,LIEKSA,63.32,30.5,115.0,1934 to 1935
FIXUAE05520,SUUR-MERIJOKI,60.57,28.63,25.0,1934 to 1935
FIXUAE05525,UTO,59.78,21.37,16.0,1934 to 1935
FIXUAE05526,UTTI,60.88,26.97,128.0,1934 to 1935
FOM00006011,TORSHAVN,62.0231,-6.7647,54.0,1949 to 2025
FRM00007005,ABBEVILLE,50.133,1.833,77.0,1974 to 1976
FRM00007070,REIMS,49.3,4.033,91.0,1974 to 1976
FRM00007110,BREST-GUIPAVAS,48.4442,-4.4119,99.0,1940 to 2025
FRM00007130,RENNES,48.067,-1.733,37.0,1920 to 1996
FRM00007145,TRAPPES,48.7744,2.0097,167.0,1949 to 2025
FRM00007180,NANCY/ESSEY,48.6833,6.2167,225.0,1954 to 2010
FRM00007190,STRASBOURG,48.55,7.6333,154.0,1920 to 1952
FRM00007222,NANTES,47.15,-1.6,27.0,1973 to 1976
FRM00007255,BOURGES,47.067,2.367,161.0,1973 to 2001
FRM00007265,AUXERRE,47.8,3.55,212.0,1974 to 1976
FRM00007280,DIJON,47.267,5.083,222.0,1974 to 1990
FRM00007354,CHATEAUROUX,46.85,1.7167,164.3,1957 to 1964
FRM00007412,COGNAC,45.667,-0.317,30.0,1974 to 1994
FRM00007434,LIMOGES,45.867,1.183,402.0,1974 to 1976
FRM00007480,LYON-BRON,45.717,4.95,200.0,1948 to 1975
FRM00007481,LYON-ST EXUPERY,45.7264,5.0778,250.0,1975 to 2011
FRM00007510,BORDEAUX MERIGNAC,44.8306,-0.6914,51.0,1920 to 2025
FRM00007577,MONTELIMAR,44.583,4.733,74.0,1973 to 1976
FRM00007602,BIARRITZ,43.467,-1.533,71.0,1973 to 1976
FRM00007603,DAX,43.683,-1.067,33.0,1973 to 1977
FRM00007607,MONT-DE-MARSAN,43.917,-0.5,60.0,1974 to 1976
FRM00007627,SAINT GIRONS,43.0,1.1,412.0,1974 to 1976
FRM00007630,TOULOUSE BLAGNAC,43.633,1.367,154.0,1973 to 1984
FRM00007645,NIMES-COURBESSAC,43.8569,4.4064,60.0,1949 to 2025
FRM00007680,SAINT-RAPHAEL,43.417,6.75,6.0,1982 to 1982
FRM00007690,NICE,43.65,7.2,4.0,1973 to 1999
FRM00007761,AJACCIO,41.9181,8.7928,6.0,1951 to 2025
FRXUAC03602,CHAUMONT,48.07,5.03,310.0,1953 to 1959
FRXUAE05723,PARIS,48.85,2.33,60.0,1920 to 1920
GIM00008495,GIBRALTAR,36.15,-5.35,3.0,1951 to 2015
GMM00010034,EGGEBECK,54.6333,9.35,20.0,1949 to 1954
GMM00010035,SCHLESWIG,54.5333,9.55,47.0,1954 to 2025
GMM00010046,USAF-DS3-075,54.383,10.15,31.0,1969 to 1994
GMM00010113,NORDERNEY,53.7139,7.1525,11.0,2011 to 2025
GMM00010122,JEVER,53.5333,7.8833,7.0,1949 to 1952
GMM00010184,GREIFSWALD,54.0978,13.4075,2.0,1950 to 2025
GMM00010200,EMDEN-FLUGPLATZ,53.3894,7.2269,0.0,1952 to 2011
GMM00010238,BERGEN,52.8153,9.9247,70.0,1969 to 2025
GMM00010272,USAF-DS3-082,53.2,12.517,74.0,1995 to 1998
GMM00010304,MEPPEN,52.7156,7.3175,19.0,1972 to 2025
GMM00010307,USAF-DS3-084,52.267,7.433,78.0,1971 to 1985
GMM00010338,USAF-DS3-085,52.467,9.7,55.0,1949 to 1997
GMM00010384,USAF-DS3-086,52.483,13.417,46.0,1941 to 1993
GMM00010393,LINDENBERG,52.2167,14.1167,112.0,1905 to 2025
GMM00010404,KALKAR,51.733,6.267,43.0,1971 to 1978
GMM00010410,ESSEN-BREDENEY,51.4056,6.9686,153.0,1965 to 2025
GMM00010419,LUDENSCHEID,51.2333,7.6,458.0,1949 to 1952
GMM00010437,USAF-DS3-091,51.13,9.28,223.0,1977 to 2007
GMM00010454,WERNIGERODE,51.85,10.7667,234.0,1950 to 1964
GMM00010468,OPPIN,51.55,12.0667,106.0,2000 to 2006
GMM00010486,USAF-DS3-096,51.11,13.67,249.0,1950 to 2000
GMM00010513,KOLN/BONN,50.8667,7.1333,91.0,1962 to 1965
GMM00010533,USAF-DS3-099,50.6,8.733,152.0,1982 to 1989
GMM00010548,MEININGEN,50.5617,10.3772,450.0,1969 to 2025
GMM00010610,BITBURG,49.95,6.57,367.0,1954 to 1959
GMM00010618,IDAR-OBERSTEIN,49.6928,7.3264,376.0,1971 to 2025
GMM00010619,BAUMHOLDER (USA-AF),49.65,7.3,426.0,1974 to 1989
GMM00010633,WIESBADEN,50.05,8.33,139.0,1946 to 1957
GMM00010639,LANGEN,50.017,8.667,135.0,1973 to 1975
GMM00010640,USAF-DS3-105,50.11,8.73,112.0,1995 to 1996
GMM00010642,USAF-DS3-106,50.167,8.95,112.0,1969 to 1989
GMM00010643,USAF-DS3-107,49.95,8.967,131.0,1982 to 1988
GMM00010657,USAF-DS3-109,49.767,9.483,338.0,1972 to 1989
GMM00010659,USAF-DS3-110,49.75,10.2,212.0,1971 to 1985
GMM00010687,GRAFENWOEHR,49.7,11.95,414.0,1970 to 1992
GMM00010729,USAF-DS3-113,49.517,8.55,100.0,1995 to 1996
GMM00010739,STUTTGART/SCHNARRENBERG,48.8333,9.2,314.0,1957 to 2025
GMM00010763,USAF-DS3-116,49.5,11.083,319.0,1975 to 1977
GMM00010764,FEUCHT(USA-AF),49.383,11.167,386.0,1979 to 1990
GMM00010771,KUEMMERSBRUCK,49.4283,11.9022,417.0,1969 to 2025
GMM00010828,USAF-DS3-120,48.1,9.25,646.0,1995 to 2007
GMM00010862,USAF-DS3-124,48.75,11.8,404.0,1974 to 1984
GMM00010866,MUNICH/RIEM,48.354,11.786,453.0,1946 to 1976
GMM00010868,MUENCHEN-OBERSCHLEISSHEIM,48.2442,11.5525,484.0,1976 to 2025
GMM00010921,USAF-DS3-126,47.983,8.9,807.0,1971 to 1994
GMM00010934,FRIEDRICHSHAFEN,47.65,9.4833,407.0,1909 to 1954
GMM00010954,ALTENSTADT,47.8342,10.8667,756.0,1977 to 2025
GMM00010962,HOHENPEISSENBERG,47.8019,11.0119,977.0,1982 to 2025
GMXUAC00001,FREIBURG,48.02,7.83,268.0,1940 to 1942
GMXUAC00002,TRIER,49.75,6.98,273.0,1939 to 1940
GMXUAC00006,ERFURT,51.02,11.03,320.0,1939 to 1942
GMXUAE05645,BORKUM,53.58,6.68,0.0,1919 to 1920
GMXUAE05685,HAMBURG,53.62,9.98,17.0,1910 to 1920
GMXUAE05751,TARP,54.67,9.4,24.0,1919 to 1920
GRM00016622,THESSALONIKI (AIRPORT),40.5272,22.9714,6.7,1955 to 2025
GRM00016716,ATHINAI HELLINIKON,37.8897,23.7417,43.1,1949 to 2025
GRM00016754,HERAKLEION (AIRPORT),35.3353,25.1819,35.0,1964 to 2025
HRM00013150,USAF-DS3-142,45.167,18.0,88.0,1973 to 1975
HRM00013209,USAF-DS3-143,44.9,13.917,67.0,1982 to 1982
HRM00013334,USAF-DS3-146,43.517,16.433,128.0,1956 to 1989
HRM00014240,ZAGREB/MAKSIMIR,45.8219,16.0336,123.0,1955 to 2025
HRM00014430,ZADAR RS,44.0969,15.3403,78.0,1982 to 2025
HUM00012812,SZOMBATHELY,47.267,16.633,221.0,1982 to 1982
HUM00012843,BUDAPEST/PESTSZENTLORINC,47.4333,19.1833,138.0,1949 to 2025
HUM00012942,PECS/POGANY,46.0,18.233,203.0,1973 to 1982
HUM00012982,SZEGED,46.25,20.1,82.0,1965 to 2025
ITM00016037,AVIANO,46.0303,12.5992,113.0,2010 to 2011
ITM00016044,UDINE/CAMPOFORMIDO,46.0333,13.1833,93.0,1958 to 2016
ITM00016045,UDINE/RIVOLTO RDS,45.9806,13.0592,50.0,2016 to 2025
ITM00016080,MILANO LINATE RDS,45.4614,9.2831,104.0,1949 to 2021
ITM00016113,CUNEO-LEVALDIGI RDS,44.5392,7.6125,385.0,2000 to 2025
ITM00016144,S. PIETRO CAPOFIUME RDS,44.6539,11.6225,10.0,1986 to 2025
ITM00016242,ROMA FIUMICINO,41.8,12.233,3.0,1952 to 1986
ITM00016245,PRATICA DI MARE RDS,41.67,12.4508,32.0,1986 to 2025
ITM00016320,BRINDISI RDS,40.6603,17.9567,14.5,1953 to 2021
ITM00016420,MESSINA,38.2,15.55,59.0,1950 to 1966
ITM00016429,TRAPANI BIRGI RDS,37.9142,12.4914,7.3,1974 to 2025
ITM00016546,DECIMOMANNU RDS,39.3461,8.9675,29.0,2012 to 2025
ITM00016560,CAGLIARI ELMAS,39.2436,9.06,4.0,1949 to 2012
ITXUAC00012,CATANIA,37.47,15.07,142.0,1941 to 1943
ITXUAC00013,MARSALA,37.78,12.45,7.0,1941 to 1941
LGM00026406,LIEPAJA,56.483,21.017,7.0,1950 to 1992
LGM00026422,RIGA,56.917,23.967,3.0,1942 to 2005
LGM00026435,SKRIVERI,56.6425,25.1283,79.4,2006 to 2025
LHM00026629,KAUNAS,54.8839,23.8358,76.1,1947 to 2025
LOM00011934,POPRAD/TATRY,49.067,20.25,696.0,1952 to 1977
LOM00011952,POPRAD-GANOVCE,49.0333,20.3167,703.0,1977 to 2025
MDM00033815,KISINEV,47.017,28.867,170.0,1949 to 2002
MKM00013586,SKOPJE- AIRPORT,41.95,21.633,233.0,1973 to 2008
MOM00060101,TANGER (AERODROME),35.733,-5.9,19.0,1984 to 1987
MOM00060107,AL HOCEIMA,35.183,-3.85,14.0,1973 to 1979
MTM00016597,LUQA,35.85,14.483,91.0,1949 to 2000
NLM00006210,VALKENBURG,52.167,4.433,1.0,1994 to 2002
NLM00006235,DE KOOIJ VK,52.9269,4.7811,1.2,1921 to 2014
NLM00006242,VLIELAND,53.25,4.917,4.0,1977 to 2002
NLM00006260,DE BILT AWS,52.0989,5.1797,1.9,1911 to 2025
NOM00001010,ANDOYA,69.3153,16.1308,10.0,2014 to 2025
NOM00001030,TROMSO,69.7,19.02,12.0,1939 to 1959
NOM00001152,BODO VI,67.2669,14.3586,11.0,1942 to 2014
NOM00001241,ORLAND III,63.7056,9.6117,10.0,1959 to 2025
NOM00001384,OSLO/GARDERMOEN,60.2,11.083,201.0,1949 to 2001
NOM00001400,EKOFISK,56.5422,3.2236,52.0,1994 to 2025
NOM00001415,STAVANGER/SOLA,58.8742,5.665,37.0,1949 to 2025
NOM00001492,OSLO-BLINDERN,59.9428,10.7194,95.0,2001 to 2025
NOXUAC04176,BERGEN,60.38,5.33,36.0,1940 to 1942
NOXUAC04178,NARVIK,68.47,17.5,23.0,1940 to 1941
NOXUAE05479,KJELLER,59.97,11.03,106.0,1930 to 1944
PLM00012105,KOSZALIN,54.2,16.1833,34.0,1965 to 1971
PLM00012120,LEBA,54.7536,17.5347,1.8,1972 to 2025
PLM00012330,POZNAN,52.417,16.85,84.0,1959 to 1992
PLM00012374,LEGIONOWO,52.4078,20.9564,94.2,1956 to 2025
PLM00012375,WARSZAWA,52.18,20.97,65.0,1920 to 1956
PLM00012425,WROCLAW I,51.1131,16.8811,119.6,1956 to 2025
PLXUAC03751,MIELEC,50.28,21.43,167.0,1957 to 1960
PLXUAE05764,WROCLAW,51.12,17.03,118.0,1920 to 1920
POM00008535,LISBOA/GEOFISICO,38.72,-9.15,95.4,1939 to 1944
POM00008545,PORTO/PEDRAS RUBRAS,41.233,-8.683,77.0,1973 to 1981
POM00008549,COIMBRA,40.2,-8.417,140.0,1973 to 1975
POM00008554,FARO/AEROPORTO,37.017,-7.967,8.0,1973 to 1983
POM00008579,LISBOA/GAGO COUTINHO,38.7667,-9.1333,104.0,1948 to 2019
RIM00013275,BEOGRAD/KOSUTNJAK,44.7667,20.4167,203.0,1971 to 2025
RIM00013276,BEOGRAD/SELENO BRD,44.7833,20.5333,243.0,1955 to 1971
RIM00013388,NIS,43.3333,21.9,203.0,1973 to 2025
ROM00015010,SATU MARE,47.717,22.883,124.0,1974 to 1993
ROM00015014,BAIA MARE,47.667,23.5,218.0,1974 to 1982
ROM00015023,SUCEAVA,47.633,26.25,350.0,1974 to 1982
ROM00015080,ORADEA,47.033,21.9,140.0,1974 to 1982
ROM00015090,IASI,47.167,27.633,104.0,1974 to 1991
ROM00015120,CLUJ-NAPOCA,46.7778,23.5714,410.0,1951 to 2012
ROM00015145,TG. MURES,46.533,24.533,309.0,1977 to 1993
ROM00015150,BACAU,46.583,26.983,184.0,1974 to 1996
ROM00015200,ARAD,46.167,21.317,117.0,1973 to 1993
ROM00015230,DEVA,45.867,22.9,231.0,1974 to 1982
ROM00015235,FAGARAS,45.833,24.933,429.0,1991 to 1993
ROM00015247,TIMISOARA,45.767,21.25,88.0,1974 to 1982
ROM00015260,SIBIU,45.783,24.083,443.0,1974 to 1989
ROM00015300,BRASOV-GHIMBAV,45.7,25.533,538.0,1974 to 1984
ROM00015302,PREDEAL,45.5,25.583,1093.0,1977 to 1988
ROM00015310,GALATI,45.5,28.2,71.0,1973 to 1989
ROM00015350,BUZAU,45.15,26.817,96.0,1977 to 1992
ROM00015360,SULINA,45.15,29.667,3.0,1991 to 1998
ROM00015410,DROBETA TURNU SEVER,44.633,22.633,77.0,1974 to 1993
ROM00015420,BUCURESTI BANEASA,44.5106,26.0781,90.0,1950 to 2025
ROM00015450,CRAIOVA,44.317,23.867,195.0,1974 to 1982
ROM00015480,CONSTANTA,44.217,28.633,13.0,1965 to 2001
ROM00015490,TR. MAGURELE,43.75,24.883,31.0,1977 to 1981
RSM00022113,MURMANSK,68.9833,33.1167,121.0,1939 to 2018
RSM00022217,KANDALAKSHA,67.1692,32.3542,26.0,1957 to 2025
RSM00022522,KEM,64.95,34.65,8.0,1950 to 2025
RSM00022802,SORTAVALA,61.717,30.717,18.0,1920 to 1990
RSM00022820,PETROZAVODSK,61.8167,34.2667,110.0,1957 to 2025
RSM00022845,KARGOPOL,61.5067,38.9347,124.0,1962 to 2025
RSM00026063,ST.PETERSBURG (VOEJKOVO),59.95,30.7,72.0,1946 to 2018
RSM00026065,LENINGRAD/CHOSSEYNOR,59.933,30.317,20.0,1954 to 1956
RSM00026258,PSKOV,57.817,28.333,45.0,1948 to 1998
RSM00026298,BOLOGOE,57.8833,34.0333,186.0,1952 to 2025
RSM00026477,VELIKIE LUKI,56.35,30.6167,97.0,1960 to 2025
RSM00026702,KALININGRAD,54.7264,20.5583,19.0,1939 to 2020
RSM00026781,SMOLENSK,54.75,32.0667,240.0,1939 to 2025
RSM00027038,VOLOGDA,59.3183,39.9256,124.7,1947 to 2025
RSM00027331,JAROSLAVL,57.58,39.58,103.0,1950 to 1953
RSM00027612,MOSKVA (DOLGOPRUDNYJ),55.93,37.5183,187.0,1934 to 2018
RSM00027707,SUHINICHI,54.1,35.35,237.0,1961 to 2025
RSM00027730,RYAZAN,54.6333,39.7,155.0,1962 to 2025
RSM00034009,KURSK,51.7667,36.1667,246.4,1946 to 2025
RSM00034122,VORONEZ,51.65,39.25,100.0,1939 to 2025
RSM00034731,ROSTOV-NA-DONU,47.25,39.8167,78.0,1939 to 2025
RSM00037011,TUAPSE,44.1,39.0333,94.6,1950 to 2025
RSM00037099,SOCHI,43.5833,39.7667,141.9,2013 to 2014
RSXUAC00073,SLUTSK,59.68,30.45,35.0,1939 to 1939
SIM00014015,LJUBLJANA/BEZIGRAD,46.0656,14.5122,299.0,1996 to 2025
SPM00008001,LA CORUNA,43.3658,-8.4214,58.0,1958 to 2025
SPM00008023,SANTANDER,43.4911,-3.8006,52.0,1973 to 2025
SPM00008055,LEON/VIRGEN DEL CAM,42.583,-5.65,914.0,1973 to 1976
SPM00008084,LOGRONO/AGONCILLO,42.45,-2.333,363.0,1973 to 1977
SPM00008087,BARDENAS REALES,42.2,-1.45,295.0,1973 to 1990
SPM00008140,VALLADOLID/VILLANUB,41.717,-4.85,849.0,1973 to 1976
SPM00008160,ZARAGOZA/BASE AEREA,41.6786,-1.0731,252.0,1958 to 2015
SPM00008190,BARCELONA SERVEI,41.3844,2.1181,95.0,2007 to 2025
SPM00008202,SALAMANCA/MATACAN,40.95,-5.5,794.0,1974 to 1976
SPM00008221,MADRID/BARAJAS RS,40.4653,-3.5797,631.0,1950 to 2025
SPM00008301,PALMA DE MALLORCA,39.55,2.617,6.0,1988 to 2002
SPM00008302,MALLORCA-SON BONET,39.6058,2.7067,41.0,1958 to 2025
SPM00008314,MENORCA/MAHON,39.867,4.233,86.0,1974 to 1976
SPM00008383,HUELVA,37.2783,-6.9117,19.0,2018 to 2025
SPM00008430,MURCIA,38.0019,-1.1708,61.0,1984 to 2025
SPM00008433,MURCIA/SAN JAVIER,37.783,-0.8,3.0,1973 to 1980
SWM00002084,USAF-DS3-010,57.717,11.783,5.0,1949 to 1977
SWM00002185,LULEA-KALLAX,65.5433,22.1144,17.0,1949 to 2025
SWM00002225,USAF-DS3-012,63.183,14.5,366.0,1949 to 1983
SWM00002365,SUNDSVALL HARNOSAND,62.5317,17.4361,3.9,1965 to 2025
SWM00002465,USAF-DS3-016,59.35,17.95,22.0,1949 to 1995
SWM00002515,TORPABRON,58.183,12.15,20.0,1977 to 1977
SWM00002527,GOTEBORG/LANDVETTER,57.6572,12.2911,164.0,1977 to 2024
SWM00002591,VISBY AEROLOGISKA STATION,57.65,18.35,45.0,1977 to 2025
SYM00040007,ALEPPO INT. AEROPOR,36.333,37.217,425.0,1957 to 1996
SYM00040022,LATTAKIA,35.533,35.767,7.0,1973 to 1976
SYM00040030,HAMA,35.117,36.75,303.0,1973 to 1976
SYM00040039,RAQQA,35.933,39.017,245.0,1973 to 1976
SZM00006610,PAYERNE,46.8117,6.9425,490.0,1943 to 2025
TSM00060710,TABARKA,36.95,8.75,21.0,1992 to 1999
TSM00060714,BIZERTE,37.233,9.817,3.0,1973 to 1995
TSM00060715,TUNIS-CARTHAGE,36.8333,10.2333,4.0,1948 to 2025
TSM00060720,KELIBIA,36.85,11.083,4.0,1974 to 1996
TSM00060725,JENDOUBA,36.483,8.8,143.0,1973 to 1996
TSM00060735,KAIROUAN,35.667,10.1,60.0,1973 to 1996
TSM00060738,THALA,35.55,8.683,1092.0,1977 to 1996
TSM00060740,MONASTIR-SKANES,35.75,10.75,2.0,1974 to 2005
TUM00017022,ZONGULDAK,41.45,31.8,137.0,1973 to 1974
TUM00017030,SAMSUN,41.2833,36.3,4.0,1952 to 2025
TUM00017064,ISTANBUL BOLGE (KARTAL),40.9,29.15,18.0,1951 to 2025
TUM00017082,MERZIFON,40.85,35.583,535.0,1973 to 1982
TUM00017130,ANKARA/CENTRAL,39.95,32.8833,891.0,1949 to 2024
TUM00017195,KAYSERI/ERKILET,38.817,35.433,1054.0,1973 to 1982
TUM00017196,KAYSERI BOLGE,38.6833,35.4833,1096.0,2016 to 2025
TUM00017220,IZMIR/GUZELYALI,38.4333,27.1667,25.0,1952 to 2025
TUM00017240,ISPARTA,37.75,30.55,997.0,1970 to 2025
TUM00017300,ANTALYA,36.867,30.733,54.0,1973 to 1979
TUM00017351,ADANA/BOLGE,36.9833,35.35,27.0,1986 to 2025
UKM00003005,LERWICK,60.1392,-1.1847,82.0,1941 to 2025
UKM00003023,SOUTH UIST RANGE,57.3575,-7.385,4.0,1998 to 2025
UKM00003026,STORNOWAY,58.217,-6.317,9.0,1949 to 2002
UKM00003066,KINLOSS,57.65,-3.567,7.0,1993 to 2004
UKM00003091,ABERDEEN/DYCE AIRPO,57.2,-2.217,65.0,1989 to 1999
UKM00003162,ESKDALEMUIR,55.317,-3.2,242.0,1999 to 2000
UKM00003170,USAF-DS3-025,56.433,-2.867,4.0,1959 to 1992
UKM00003171,LEUCHARS,56.383,-2.867,12.0,1949 to 2002
UKM00003213,USAF-DS3-027,54.32,-3.4,8.0,1973 to 1999
UKM00003238,ALBEMARLE,55.0197,-1.8817,142.0,2002 to 2025
UKM00003240,BOULMER,55.417,-1.6,23.0,1992 to 2002
UKM00003257,LEEMING,54.3,-1.533,40.0,1990 to 2000
UKM00003322,USAF-DS3-032,53.55,-2.917,54.0,1949 to 1996
UKM00003354,NOTTINGHAM,53.0056,-1.2511,117.0,1998 to 2025
UKM00003377,WADDINGTON,53.167,-0.517,70.0,1989 to 2005
UKM00003414,SHAWBURY,52.8,-2.667,76.0,1997 to 2000
UKM00003470,USAF-DS3-035,52.85,0.167,12.0,1973 to 1977
UKM00003496,USAF-DS3-037,52.67,1.68,13.0,1951 to 2001
UKM00003501,CAPEL DEWI,52.4167,-4.0,92.0,1998 to 2001
UKM00003502,ABERPORTH,52.1394,-4.5711,133.0,1969 to 2025
UKM00003559,CARDINGTON,52.1039,-0.4214,29.0,1996 to 2021
UKM00003586,USAF-DS3-043,52.333,0.767,54.0,1989 to 1993
UKM00003590,WATTISHAM,52.117,0.967,87.0,1999 to 2006
UKM00003649,BRIZE NORTON,51.75,-1.583,88.0,1992 to 2005
UKM00003693,SHOEBURYNESS,51.5547,0.8269,2.0,1966 to 2025
UKM00003715,CARDIFF-WALES ARPT,51.4,-3.35,67.0,1989 to 1997
UKM00003743,LARKHILL,51.2017,-1.8058,132.0,1942 to 2025
UKM00003774,USAF-DS3-044,51.083,-0.217,143.0,1953 to 1992
UKM00003808,CAMBORNE,50.2183,-5.3275,87.0,1949 to 2025
UKM00003882,HERSTMONCEUX,50.8994,0.3169,52.0,1993 to 2025
UKM00003917,BELFAST/ALDERGROVE ARPT,54.65,-6.2167,66.0,1949 to 1962
UKM00003918,CASTOR BAY,54.5,-6.3333,18.0,2002 to 2025
UKM00003920,USAF-DS3-050,54.48,-6.1,37.0,1962 to 2002
UKM00033966,KRYMSKA,45.0464,34.5989,204.6,2011 to 2013
UKXUAC03371,SEWASTOPOL,44.62,33.53,8.0,1939 to 1949
UPM00033317,SHEPETIVKA,50.1667,27.0333,277.0,1957 to 2022
UPM00033345,KIEV,50.4,30.5667,166.0,1939 to 2022
UPM00033393,L'VIV,49.8167,23.95,319.0,1947 to 2022
UPM00033506,POLTAVA,49.6,34.55,159.0,1947 to 1949
UPM00033631,UZHHOROD,48.633,22.267,118.0,1953 to 2008
UPM00033658,CHERNIVTSI,48.3667,25.9,242.0,1950 to 2018
UPM00033791,KRYVYI RIH,48.0333,33.2167,123.0,1949 to 2022
UPM00033837,ODESA,46.4333,30.7667,42.0,1939 to 2022
UPM00033946,SIMFEROPOL,44.6833,34.1333,180.0,1950 to 2010
UPM00034300,KHARKIV,49.9667,36.1333,154.0,1939 to 2022
ZZM00099018,OCEAN WEATHER SHIP M,66.0,2.0,0.0,1967 to 1972
ZZM00099286,ENVIRONM BUOY 62027,48.7,-8.9167,3.0,1960 to 1961
